City_ID,City,Lat,Lng,Max Temp,Humidity,Cloudiness,Wind Speed,Country,Date
0,ribeira grande,38.5167,-28.7,17.65,100,75,9.26,PT,1682230375
1,port elizabeth,-33.918,25.5701,15.73,95,100,1.15,ZA,1682230208
2,papatowai,-46.5619,169.4708,13.12,69,77,11.83,NZ,1682230376
3,blackmans bay,-43.0167,147.3167,15.97,58,91,2.14,AU,1682230376
4,bethel,41.3712,-73.414,12.65,90,100,2.57,US,1682230377
5,kailua-kona,19.6406,-155.9956,25.98,91,100,4.63,US,1682230377
6,bogoroditsk,53.7717,38.1241,11.9,45,7,1.94,RU,1682230377
7,east london,-33.0153,27.9116,16.52,82,0,1.54,ZA,1682230377
8,edinburgh of the seven seas,-37.0676,-12.3116,15.85,70,66,9.36,SH,1682230377
9,boguchany,58.3814,97.4531,5.05,54,34,2.66,RU,1682230378
10,chornobay,49.6708,32.3239,12.3,61,28,2.42,UA,1682230378
11,salekhard,66.53,66.6019,0.53,98,100,6.7,RU,1682230259
12,atafu village,-8.5421,-172.5159,28.99,73,88,2.99,TK,1682230378
13,thompson,55.7435,-97.8558,-5.91,53,40,1.54,CA,1682230379
14,hithadhoo,-0.6,73.0833,29.24,71,97,2.03,MV,1682230379
15,kutulik,53.3508,102.7839,7.25,34,71,2.95,RU,1682230379
16,kupang,-10.1667,123.5833,34.32,52,20,9.26,ID,1682230246
17,santyoku,37.4406,129.1708,13.75,51,98,2.93,KR,1682230379
18,la'ie,21.6477,-157.9253,25.98,77,62,2.24,US,1682230379
19,lerwick,60.1545,-1.1494,6.0,74,100,15.71,GB,1682230379
20,san pedro de uraba,8.2752,-76.3764,22.99,90,100,0.76,CO,1682230379
21,enewetak,11.3474,162.3373,26.22,84,100,7.66,MH,1682230380
22,three points,32.0767,-111.3137,22.49,19,0,4.12,US,1682230380
23,uturoa,-16.7333,-151.4333,27.81,81,92,8.12,PF,1682230380
24,albany,42.6001,-73.9662,12.07,92,100,2.68,US,1682230380
25,port-aux-francais,-49.35,70.2167,8.83,97,100,15.94,TF,1682230380
26,nemuro,43.3236,145.575,2.45,96,96,2.77,JP,1682230094
27,mont-dore,-22.2833,166.5833,28.33,99,10,2.12,NC,1682230381
28,waitangi,-43.9535,-176.5597,12.68,91,7,0.45,NZ,1682230381
29,puerto natales,-51.7236,-72.4875,5.31,95,100,2.46,CL,1682230382
30,adamstown,-25.066,-130.1015,24.42,88,100,6.99,PN,1682230382
31,pimenta bueno,-11.6725,-61.1936,21.86,99,100,0.78,BR,1682230383
32,kodiak,57.79,-152.4072,5.73,42,0,4.63,US,1682230383
33,gadzhiyevo,69.2551,33.3362,-3.49,79,91,10.47,RU,1682230383
34,ribeira brava,32.65,-17.0667,17.35,77,100,1.88,PT,1682230383
35,margate,51.3813,1.3862,11.06,87,100,2.24,GB,1682230349
36,invercargill,-46.4,168.35,11.68,82,66,0.89,NZ,1682230367
37,keflavik,64.0049,-22.5624,4.24,100,100,4.12,IS,1682230383
38,constantia,44.1833,28.65,13.17,68,77,2.45,RO,1682230147
39,tazovsky,67.4667,78.7,0.69,100,100,5.52,RU,1682230384
40,lobujya,27.95,86.8167,-8.03,80,36,3.08,NP,1682230385
41,dubbo,-32.25,148.6167,25.07,38,75,5.66,AU,1682230130
42,bandar lampung,-5.4254,105.258,31.14,63,30,2.5,ID,1682230277
43,hassi messaoud,31.6804,6.0729,17.92,48,0,2.06,DZ,1682230385
44,taro,-8.3862,115.28,27.0,69,48,1.52,ID,1682230385
45,wainwright,52.839,-110.8572,-0.09,61,89,3.79,CA,1682230385
46,olonkinbyen,70.9221,-8.7187,-3.46,59,8,6.05,SJ,1682230386
47,grytviken,-54.2811,-36.5092,0.18,80,40,6.28,GS,1682230386
48,vila velha,-20.3297,-40.2925,22.75,84,40,1.03,BR,1682230367
49,college,64.8569,-147.8028,-7.45,57,40,10.29,US,1682230386
50,al hayy,32.1735,46.0433,32.59,19,100,1.61,IQ,1682230386
51,wewak,-3.5534,143.6268,28.98,71,19,2.76,PG,1682230386
52,okhotsk,59.3833,143.3,3.07,61,17,2.62,RU,1682230387
53,aso,32.9551,131.0967,18.32,31,38,0.89,JP,1682230387
54,whitehorse,60.7161,-135.0538,4.43,60,75,2.57,CA,1682230388
55,talnakh,69.4865,88.3972,1.23,88,98,7.12,RU,1682230388
56,margaret river,-33.95,115.0667,21.76,55,0,3.87,AU,1682230388
57,iqaluit,63.7506,-68.5145,-0.15,93,100,6.17,CA,1682230388
58,brookings,44.3114,-96.7984,-2.17,82,0,0.0,US,1682230388
59,mount gambier,-37.8333,140.7667,19.69,54,0,2.3,AU,1682230388
60,tiksi,71.6872,128.8694,-3.96,80,28,0.16,RU,1682230389
61,saint-francois,46.4154,3.9054,6.49,100,40,0.51,FR,1682230389
62,port augusta,-32.5,137.7667,26.95,26,0,3.67,AU,1682230389
63,antofagasta,-23.65,-70.4,16.6,85,2,2.66,CL,1682230389
64,bilibino,68.0546,166.4372,-0.27,87,7,1.21,RU,1682230389
65,georgetown,5.4112,100.3354,32.96,58,20,3.09,MY,1682230298
66,khanty-mansiysk,61.0042,69.0019,7.06,70,0,4.02,RU,1682230390
67,new norfolk,-42.7826,147.0587,16.62,37,85,1.34,AU,1682230390
68,bredasdorp,-34.5322,20.0403,15.51,84,43,3.5,ZA,1682230390
69,ancud,-41.8697,-73.8203,8.01,88,69,1.62,CL,1682230390
70,orden,46.3937,9.6963,4.75,88,98,1.76,CH,1682230391
71,ushuaia,-54.8,-68.3,5.81,70,20,9.26,AR,1682230253
72,russellville,35.2784,-93.1338,9.99,47,100,0.99,US,1682230391
73,hancheng,32.5186,112.3522,6.8,91,100,5.96,CN,1682230391
74,rakaw,53.9674,27.0562,12.23,62,100,1.86,BY,1682230392
75,iskateley,67.6803,53.1512,-5.54,82,36,7.23,RU,1682230392
76,carnarvon,-24.8667,113.6333,27.05,44,97,5.44,AU,1682230392
77,hawaiian paradise park,19.5933,-154.9731,22.73,94,75,0.0,US,1682230393
78,island harbour,50.724,-1.2758,10.1,91,100,1.34,GB,1682230393
79,newman,37.3138,-121.0208,19.6,78,96,0.45,US,1682230393
80,ketchikan,55.3422,-131.6461,8.99,93,100,4.12,US,1682230393
81,hermanus,-34.4187,19.2345,16.7,87,68,4.79,ZA,1682230393
82,punta arenas,-53.15,-70.9167,6.06,81,0,14.4,CL,1682230393
83,mikuni,36.2171,136.1519,12.88,47,77,9.27,JP,1682230137
84,yellowknife,62.456,-114.3525,3.29,56,20,3.6,CA,1682230394
85,charters towers,-20.1,146.2667,26.17,53,95,5.44,AU,1682230394
86,hamilton,39.1834,-84.5333,4.49,73,0,3.09,US,1682230394
87,buri,-23.7975,-48.5928,13.47,98,17,2.43,BR,1682230394
88,fortuna,40.5982,-124.1573,11.63,93,29,1.17,US,1682230395
89,stene,50.9523,2.3681,10.04,50,72,2.24,FR,1682230395
90,toliara,-23.35,43.6667,24.67,68,20,2.64,MG,1682230395
91,xacmaz,41.4635,48.806,16.13,72,46,3.67,AZ,1682230395
92,uacu cungo,-11.3634,15.1208,16.52,95,97,1.14,AO,1682230396
93,puerto ayora,-0.7393,-90.3518,25.31,92,74,3.24,EC,1682230396
94,solleftea,63.1667,17.2667,-1.04,90,100,3.12,SE,1682230396
95,wailua homesteads,22.0669,-159.378,24.24,88,100,3.6,US,1682230396
96,rongelap,11.1635,166.8941,27.19,82,57,8.61,MH,1682230396
97,colonia,50.9333,6.95,12.71,87,20,2.57,DE,1682230397
98,hadibu,12.65,54.0333,29.33,61,80,0.9,YE,1682230397
99,fraserburgh,57.6874,-2.0184,6.91,93,100,9.08,GB,1682230397
100,arno,60.1167,18.6333,2.66,75,68,2.36,SE,1682230397
101,medina,24.4686,39.6142,28.24,26,37,1.54,SA,1682230293
102,san patricio,28.017,-97.5169,23.93,87,82,6.71,US,1682230397
103,bel ombre,-4.6167,55.4167,31.91,66,20,3.6,SC,1682230397
104,saipan,15.1355,145.701,30.39,100,40,7.2,MP,1682230186
105,nar'yan-mar,67.6713,53.087,-5.43,83,35,7.29,RU,1682230398
106,katsuren-haebaru,26.3369,127.8719,25.01,72,96,5.79,JP,1682230398
107,mezhdurechenskiy,59.6,65.9333,9.75,71,100,2.64,RU,1682230398
108,banyo,6.75,11.8167,20.05,90,98,0.65,CM,1682230398
109,mount pearl,47.5166,-52.7813,2.75,98,100,8.23,CA,1682230398
110,el calafate,-50.3408,-72.2768,7.41,88,88,6.48,AR,1682230398
111,westport,41.1415,-73.3579,14.04,92,100,6.69,US,1682230398
112,ilulissat,69.2167,-51.1,0.01,93,100,0.51,GL,1682230399
113,revda,56.801,59.9303,5.49,93,100,2.35,RU,1682230325
114,korla,41.7597,86.1469,10.63,53,69,12.88,CN,1682230399
115,anadyr,64.75,177.4833,-3.72,73,0,2.0,RU,1682230399
116,kuqa,41.7278,82.9364,16.83,9,0,3.99,CN,1682230265
117,hirara,24.8,125.2833,23.65,78,18,4.19,JP,1682230261
118,longyearbyen,78.2186,15.6401,-10.09,73,0,3.6,SJ,1682230399
119,aasiaat,68.7098,-52.8699,-1.32,98,100,3.53,GL,1682230400
120,ivdel',60.6911,60.4206,10.43,47,79,3.45,RU,1682230400
121,novoshakhtinskiy,44.025,132.1514,10.12,22,75,8.79,RU,1682230400
122,alofi,-19.0595,-169.9187,25.12,74,39,7.07,NU,1682230400
123,potosi,-19.5836,-65.7531,4.64,92,8,2.19,BO,1682230304
124,naze,28.3667,129.4833,19.89,75,72,7.06,JP,1682230113
125,beau vallon,-20.4189,57.6953,28.13,78,75,5.14,MU,1682230400
126,lebu,-37.6167,-73.65,11.08,89,6,6.06,CL,1682230401
127,jamestown,42.097,-79.2353,6.77,92,20,3.6,US,1682230401
128,quellon,-43.1167,-73.6167,5.14,100,75,1.03,CL,1682230233
129,bassar,9.25,0.7833,24.87,78,55,1.99,TG,1682230401
130,nkove,-7.95,30.85,24.09,75,100,1.48,TZ,1682230401
131,namtsy,62.7161,129.6658,0.15,86,20,6.35,RU,1682230401
132,broken hill,-31.95,141.4333,23.37,33,0,6.05,AU,1682230402
133,sirte,31.2089,16.5887,17.67,84,1,8.26,LY,1682230402
134,afaahiti,-17.75,-149.2833,26.93,81,100,8.24,PF,1682230402
135,vilyuysk,63.7553,121.6247,-0.16,83,21,2.86,RU,1682230402
136,baicheng,45.6167,122.8167,12.16,9,0,5.3,CN,1682230402
137,avarua,-21.2078,-159.775,22.03,88,30,0.51,CK,1682230403
138,kodar,16.9833,79.9667,36.84,36,15,5.06,IN,1682230403
139,pisco,-13.7,-76.2167,21.03,88,0,3.09,PE,1682230403
140,codajas,-3.8367,-62.0569,22.18,99,100,1.15,BR,1682230404
141,abong mbang,3.9833,13.1833,20.65,93,98,1.23,CM,1682230404
142,tolanaro,-25.0319,46.9987,25.34,68,18,1.36,MG,1682230404
143,geraldton,-28.7667,114.6,27.23,39,0,5.14,AU,1682230147
144,san ignacio,17.1561,-89.0714,24.06,87,81,1.11,BZ,1682230405
145,rosetta,31.4044,30.4164,19.5,57,85,4.48,EG,1682230405
146,cameron park,38.6688,-120.9872,17.59,73,98,1.68,US,1682230405
147,sarvar,47.2539,16.9352,13.92,72,46,3.32,HU,1682230289
148,tashtagol,52.7657,87.8894,9.01,58,33,1.14,RU,1682230406
149,poronaysk,49.2167,143.1167,4.49,60,100,3.63,RU,1682230406
150,sao felix do xingu,-6.6447,-51.995,21.64,98,100,0.46,BR,1682230407
151,baganga,7.5739,126.56,29.11,76,50,3.15,PH,1682230407
152,port isabel,26.0734,-97.2086,25.03,87,40,7.2,US,1682230407
153,torghay,49.6339,63.4981,18.87,44,69,4.95,KZ,1682230408
154,kyzyl-suu,42.3414,78.0056,11.59,31,1,2.62,KG,1682230408
155,nova sintra,14.8667,-24.7167,19.89,76,4,9.05,CV,1682230408
156,kibuye,-2.0597,29.3482,18.77,88,100,1.53,RW,1682230408
157,vrangel',42.7297,133.0839,8.26,39,44,7.38,RU,1682230409
158,vilyuchinsk,52.9306,158.4028,5.15,94,99,1.33,RU,1682230409
159,worthing,50.8145,-0.3713,11.32,88,100,1.34,GB,1682230249
160,waingapu,-9.6567,120.2641,29.15,67,33,4.16,ID,1682230410
161,biesenthal,52.7662,13.6442,15.14,63,97,2.19,DE,1682230410
162,severo-yeniseyskiy,60.3725,93.0408,1.73,94,71,2.9,RU,1682230410
163,klaksvik,62.2266,-6.589,3.51,67,100,13.66,FO,1682230410
164,lagoa,39.05,-27.9833,15.7,95,100,6.88,PT,1682230410
165,safi,32.1667,-8.8333,13.11,91,65,4.14,MA,1682230411
166,peronne,49.9333,2.9333,9.32,100,40,5.14,FR,1682230411
167,stanley,54.868,-1.6985,5.95,92,92,1.52,GB,1682230141
168,dapchi,12.4904,11.4944,29.48,37,39,4.1,NG,1682230411
169,viveiro,43.6623,-7.5934,14.57,90,92,8.05,ES,1682230338
170,gidole,5.65,37.3667,16.71,76,99,2.42,ET,1682230411
171,eraan,9.0629,117.7016,31.02,66,43,2.18,PH,1682230412
172,linhares,-19.3911,-40.0722,20.31,90,79,2.52,BR,1682230412
173,susuman,62.7833,148.1667,-2.69,67,87,5.28,RU,1682230412
174,kavieng,-2.5744,150.7967,28.45,74,100,3.42,PG,1682230413
175,aripuana,-9.1667,-60.6333,22.16,100,100,0.33,BR,1682230413
176,ballina,-28.8667,153.5667,22.1,62,83,8.95,AU,1682230316
177,morant bay,17.8815,-76.4093,25.79,77,73,1.61,JM,1682230413
178,burang,30.25,81.1667,-2.36,50,4,2.0,CN,1682230413
179,shenjiamen,29.9576,122.298,15.5,78,91,7.34,CN,1682230413
180,irkutsk,52.2978,104.2964,8.43,27,0,5.0,RU,1682230279
181,nizhnesortymskiy,62.4397,71.7603,1.27,99,67,3.08,RU,1682230414
182,vila franca do campo,37.7167,-25.4333,17.23,96,100,7.0,PT,1682230414
183,lucapa,-8.4192,20.7447,19.84,96,100,1.29,AO,1682230414
184,kununurra,-15.7667,128.7333,31.99,29,0,7.2,AU,1682230414
185,lubango,-14.9172,13.4925,15.36,87,59,1.53,AO,1682230415
186,gaoping,30.7758,106.1029,10.56,91,100,4.53,CN,1682230415
187,port lincoln,-34.7333,135.8667,19.89,64,0,4.99,AU,1682230415
188,kalevala,65.2,31.1667,-1.52,73,58,1.61,RU,1682230415
189,sitka,57.0531,-135.33,6.94,87,100,1.54,US,1682230415
190,inhambane,-23.865,35.3833,23.99,78,40,3.09,MZ,1682230416
191,tsiombe,-25.3,45.4833,25.47,70,62,2.32,MG,1682230416
192,belmonte,-15.8631,-38.8828,23.92,90,84,3.44,BR,1682230416
193,alice springs,-23.7,133.8833,26.75,24,43,5.14,AU,1682230416
194,prineville,44.2999,-120.8345,13.06,65,100,0.0,US,1682230416
195,ola,59.5833,151.2833,3.97,54,99,9.35,RU,1682230416
196,reriutaba,-4.1417,-40.5822,20.05,92,83,1.04,BR,1682230417
197,zeya,53.75,127.2667,4.83,47,100,4.09,RU,1682230417
198,ulaangom,49.9811,92.0667,7.94,18,57,3.22,MN,1682230417
199,ust-nera,64.5667,143.2,-0.4,79,100,3.0,RU,1682230417
200,pacific grove,36.6177,-121.9166,12.91,86,75,3.09,US,1682230417
201,samassi,39.4817,8.9092,17.88,93,0,1.03,IT,1682230390
202,akureyri,65.6835,-18.0878,-6.04,86,20,1.54,IS,1682230410
203,mil'kovo,55.6078,37.7956,15.79,49,13,2.21,RU,1682230419
204,polyarnyye zori,67.3661,32.4981,-2.47,67,10,4.73,RU,1682230419
205,happy valley-goose bay,53.3168,-60.3315,1.17,93,100,0.0,CA,1682230419
206,jashpurnagar,22.9,84.15,29.93,21,97,2.49,IN,1682230419
207,polyarnyy,69.1989,33.4478,-3.3,79,93,10.28,RU,1682230332
208,qaqortoq,60.7167,-46.0333,-0.58,90,82,1.06,GL,1682230420
209,rensselaer,42.7168,-73.4829,10.22,88,98,6.23,US,1682230420
210,vadso,70.0744,29.7487,-1.91,74,75,13.38,NO,1682230420
211,vorgashor,67.5833,63.95,0.13,89,100,7.77,RU,1682230420
212,nuuk,64.1835,-51.7216,3.34,75,100,5.66,GL,1682230285
213,biltine,14.5333,20.9167,32.05,11,4,2.85,TD,1682230421
214,vernon,50.2581,-119.2691,13.2,52,100,4.63,CA,1682230421
215,dubovka,49.0583,44.829,11.53,66,94,3.42,RU,1682230383
216,keetmanshoop,-26.5833,18.1333,18.2,17,91,0.8,NA,1682230422
217,cangas de onis,43.3284,-5.0718,12.28,76,99,2.93,ES,1682230422
218,kaa-khem,51.6833,94.7333,7.98,24,10,1.37,RU,1682230422
219,dudinka,69.4058,86.1778,1.46,98,100,8.72,RU,1682230422
220,saldanha,-33.0117,17.9442,14.03,92,100,8.68,ZA,1682230423
221,castillos,-34.1667,-53.8333,15.94,94,100,1.62,UY,1682230423
222,kourou,5.1552,-52.6478,23.03,95,100,2.39,GF,1682230423
223,kiama,-34.6833,150.8667,19.65,92,99,1.34,AU,1682230423
224,klyuchi,52.2667,79.1667,12.5,32,99,7.38,RU,1682230423
225,port-vila,-17.7338,168.3219,26.78,78,20,4.12,VU,1682230359
226,smithers,54.7804,-127.1743,5.18,93,100,0.0,CA,1682230424
227,dwarka,22.2394,68.9678,29.51,56,6,5.04,IN,1682230424
228,aabenraa,55.0443,9.4174,8.95,95,100,4.04,DK,1682230424
229,makurazaki,31.2667,130.3167,17.64,61,30,2.17,JP,1682230340
230,cabedelo,-6.9811,-34.8339,25.37,74,68,6.33,BR,1682230399
231,kone,-21.0595,164.8658,26.5,79,23,2.21,NC,1682230424
232,matoury,4.8483,-52.3317,22.98,100,100,0.51,GF,1682230424
233,herzberg am harz,51.65,10.3333,11.99,96,100,0.45,DE,1682230424
234,port saint john's,-31.6229,29.5448,19.41,53,64,2.34,ZA,1682230425
235,okha,53.5739,142.9478,0.35,78,100,7.61,RU,1682230425
236,ciudad nueva,-17.9837,-70.2356,14.92,87,51,0.61,PE,1682230425
237,alakurtti,66.9672,30.3491,-2.64,66,18,3.6,RU,1682230425
238,aginskoye,51.1,114.53,7.74,14,31,4.77,RU,1682230425
239,sandnessjoen,66.0217,12.6316,-0.2,70,75,0.89,NO,1682230426
240,al khawr,25.7667,51.3167,31.47,18,100,2.74,QA,1682230426
241,illela,13.7292,5.2975,28.08,15,1,1.73,NG,1682230426
242,palembang,-2.9167,104.7458,33.05,58,75,1.54,ID,1682230185
243,as sulayyil,20.4607,45.5779,26.3,49,13,0.5,SA,1682230427
244,bakchar,57.0186,82.0711,7.92,54,100,5.2,RU,1682230427
245,uribia,11.7139,-72.266,25.13,83,99,3.5,CO,1682230427
246,kapuskasing,49.4169,-82.4331,-0.95,93,100,4.12,CA,1682230427
247,arraial do cabo,-22.9661,-42.0278,23.11,71,1,2.78,BR,1682230427
248,lihue,21.9789,-159.3672,24.58,85,100,3.6,US,1682230427
249,dongola,19.1667,30.4833,34.38,9,70,9.18,SD,1682230427
250,flying fish cove,-10.4217,105.6791,27.52,77,60,7.07,CX,1682230428
251,houghton,47.1219,-88.569,-0.74,94,100,1.34,US,1682230428
252,burutu,5.3509,5.5076,25.93,87,100,2.25,NG,1682230428
253,bemidji,47.4736,-94.8803,-1.64,85,100,3.09,US,1682230428
254,quelimane,-17.8786,36.8883,22.97,100,75,1.54,MZ,1682230428
255,xuanzhou,30.9525,118.7553,13.44,89,100,6.8,CN,1682230429
256,motygino,58.1831,94.7592,3.11,90,91,1.99,RU,1682230429
257,prince george,53.9166,-122.753,6.25,82,100,4.63,CA,1682230429
258,middelburg,-25.7751,29.4648,17.0,30,47,2.25,ZA,1682230430
259,orchard homes,46.8633,-114.0484,2.08,77,0,0.45,US,1682230430
260,mandalgovi,45.7625,106.2708,8.51,15,100,3.7,MN,1682230430
261,satsuma,30.8532,-88.0561,15.12,59,1,2.02,US,1682230430
262,aykhal,66.0,111.5,-2.87,76,100,4.16,RU,1682230430
263,okotoks,50.7289,-113.9828,3.77,67,87,0.45,CA,1682230430
264,zhezqazghan,47.7833,67.7667,17.32,17,40,11.0,KZ,1682230431
265,mount isa,-20.7333,139.5,29.87,25,40,7.72,AU,1682230263
266,crane,31.3974,-102.3501,9.34,56,27,12.51,US,1682230431
267,xinyuan,37.3,99.0,4.93,43,100,3.68,CN,1682230431
268,utrik,11.2278,169.8474,27.23,77,44,8.3,MH,1682230431
269,ladan,50.5196,32.5818,12.11,60,25,2.26,UA,1682230432
270,papao,-17.75,-149.55,27.82,86,100,8.82,PF,1682230432
271,kaiyuan,23.6977,103.3037,33.17,18,2,6.16,CN,1682230433
272,george town,5.4112,100.3354,32.96,58,20,3.09,MY,1682230298
273,lyskovo,56.0328,45.0422,13.08,44,10,2.57,RU,1682230433
274,west island,-12.1568,96.8225,27.99,83,100,5.66,CC,1682230433
275,san rafael del yuma,18.4299,-68.6739,23.76,89,73,1.93,DO,1682230433
276,bhainsdehi,21.6467,77.6325,31.34,20,21,3.1,IN,1682230434
277,sinfra,6.6167,-5.9167,23.36,93,82,2.02,CI,1682230434
278,hampton bays,40.869,-72.5176,14.1,97,100,6.69,US,1682230434
279,rachitoasa,46.4333,27.3667,9.01,61,37,1.29,RO,1682230434
280,isetskoye,56.4858,65.3226,12.4,57,98,2.59,RU,1682230435
281,kachug,53.9606,105.8817,5.41,32,90,4.56,RU,1682230435
282,port macquarie,-31.4333,152.9167,21.61,75,34,5.39,AU,1682230435
283,brookhaven,31.5791,-90.4407,14.81,71,21,2.05,US,1682230435
284,port mathurin,-19.6833,63.4167,26.24,78,9,7.44,MU,1682230435
285,st. john's,47.5649,-52.7093,3.21,98,100,11.62,CA,1682230435
286,luanda,-8.8368,13.2343,26.0,89,40,1.54,AO,1682230436
287,urumqi,43.801,87.6005,12.53,28,0,3.0,CN,1682230436
288,oguta,5.7089,6.8103,24.97,92,95,1.47,NG,1682230436
289,sartana,47.1744,37.6927,10.62,73,85,1.19,UA,1682230437
290,fort st. john,56.2499,-120.8529,3.94,87,100,2.06,CA,1682230437
291,cruzeiro do sul,-29.5128,-51.9853,15.04,91,86,1.08,BR,1682230437
292,farmville,37.3021,-78.3919,10.22,100,40,0.0,US,1682230437
293,badger,64.8,-147.5333,-7.49,58,40,10.29,US,1682230437
294,sint michiel liber,12.15,-68.9833,25.9,89,20,1.03,CW,1682230438
295,harper,4.375,-7.7169,26.61,85,100,3.54,LR,1682230438
296,kirakira,-10.4544,161.9205,28.9,77,49,3.37,SB,1682230438
297,akrehamn,59.2667,5.1833,8.33,93,100,4.12,NO,1682230439
298,crateus,-5.1783,-40.6775,19.02,82,71,1.33,BR,1682230439
299,new glasgow,45.5834,-62.6486,2.1,96,60,2.52,CA,1682230439
300,novyy turtkul',41.55,61.0167,25.95,13,97,5.51,UZ,1682230439
301,naracoorte,-36.9579,140.7383,22.24,42,0,0.97,AU,1682230439
302,howrah,22.5892,88.3103,32.0,48,75,3.09,IN,1682230440
303,mar del plata,-38.0023,-57.5575,14.97,85,57,0.45,AR,1682230329
304,haiku-pauwela,20.9219,-156.3051,23.91,78,0,4.12,US,1682230440
305,ta`u,-14.2336,-169.5144,27.33,78,36,4.23,AS,1682230440
306,kitimat,54.0524,-128.6534,7.21,26,100,0.25,CA,1682230440
307,nelson bay,-32.7167,152.15,22.27,72,5,3.13,AU,1682230441
308,sena madureira,-9.0656,-68.6569,22.88,97,100,0.9,BR,1682230441
309,lompoc,34.6391,-120.4579,12.0,90,35,4.24,US,1682230441
310,kapa'a,22.0752,-159.319,24.99,88,100,3.6,US,1682230442
311,kenema,7.8767,-11.1875,23.38,93,87,0.22,SL,1682230442
312,mwanza,-2.5167,32.9,20.67,84,100,2.24,TZ,1682230442
313,verkhnevilyuysk,63.4453,120.3167,0.08,85,22,2.1,RU,1682230442
314,stjordalshalsen,63.4681,10.9262,0.0,100,75,1.54,NO,1682230443
315,hafnarfjordur,64.0671,-21.9377,4.21,100,75,3.09,IS,1682230443
316,pala,9.3642,14.9046,28.73,47,95,3.29,TD,1682230443
317,cill airne,52.05,-9.5167,6.33,95,99,1.83,IE,1682230443
318,saint-joseph,-21.3667,55.6167,28.04,70,100,1.14,RE,1682230443
319,isafjordur,66.0755,-23.124,0.37,68,12,1.55,IS,1682230444
320,porto novo,6.4965,2.6036,26.69,84,100,2.98,BJ,1682230444
321,al kut,32.5147,45.819,31.58,23,88,0.85,IQ,1682230444
322,san luis de la loma,17.2706,-100.8939,25.72,81,100,0.79,MX,1682230444
323,viedma,-40.8135,-62.9967,8.69,81,0,4.5,AR,1682230445
324,sao joao do piaui,-8.3581,-42.2467,23.88,74,70,3.53,BR,1682230445
325,alta,69.9689,23.2717,-1.41,64,75,6.69,NO,1682230445
326,richards bay,-28.783,32.0377,21.5,70,42,3.82,ZA,1682230445
327,garoua boulai,5.8833,14.55,18.48,93,99,1.53,CM,1682230445
328,realico,-35.0366,-64.2447,12.98,63,97,3.13,AR,1682230445
329,punta del este,-34.9667,-54.95,15.49,95,100,0.0,UY,1682230446
330,egilsstadir,65.2653,-14.3948,-7.05,86,20,1.54,IS,1682230446
331,brisas de zicatela,15.8369,-97.0419,26.89,79,30,2.61,MX,1682230446
332,la roda,39.2167,-2.15,10.5,59,1,3.6,ES,1682230341
333,saint-pierre,-21.3393,55.4781,28.65,65,0,2.06,RE,1682230278
334,san julian,21.0167,-102.1667,18.09,41,91,2.78,MX,1682230446
335,whakatane,-37.9585,176.9854,18.76,99,99,2.72,NZ,1682230344
336,tutoia,-2.7619,-42.2744,24.89,85,99,3.77,BR,1682230447
337,kasongo-lunda,-6.4667,16.8167,21.69,98,100,0.2,CD,1682230447
338,cabo san lucas,22.8909,-109.9124,22.61,55,8,5.77,MX,1682230447
339,petropavlovsk-kamchatsky,53.0452,158.6483,4.33,65,75,3.0,RU,1682230447
340,prince rupert,54.3161,-130.3201,7.83,86,100,7.72,CA,1682230448
341,ondjiva,-17.0667,15.7333,19.58,74,40,0.94,AO,1682230448
342,yerofey pavlovich,53.9667,121.9667,2.78,33,84,4.02,RU,1682230448
343,urucui,-7.2294,-44.5561,22.96,74,62,1.24,BR,1682230448
344,bodo,67.28,14.405,0.43,83,100,4.12,NO,1682230326
345,rudnichnyy,59.617,52.4703,9.72,55,100,4.91,RU,1682230450
346,giyani,-23.3025,30.7187,24.29,43,1,4.3,ZA,1682230400
347,orapa,-21.2833,25.3667,22.58,35,58,3.55,BW,1682230450
348,santander,43.4647,-3.8044,14.7,75,75,2.24,ES,1682230450
349,mumford,5.2618,-0.759,26.92,85,93,4.61,GH,1682230450
350,katiola,8.1333,-5.1,24.35,88,72,1.56,CI,1682230450
351,fort bragg,35.139,-79.006,13.79,94,0,2.57,US,1682230451
352,nogliki,51.8333,143.1667,-0.03,95,100,5.97,RU,1682230451
353,tocopilla,-22.092,-70.1979,19.7,76,1,2.25,CL,1682230451
354,port alfred,-33.5906,26.891,18.65,47,100,2.2,ZA,1682230451
355,tvoroyri,61.5556,-6.8111,4.51,67,98,14.91,FO,1682230452
356,kingston,17.997,-76.7936,21.8,89,44,0.45,JM,1682230301
357,santa cruz,-17.8,-63.1667,20.62,69,8,3.85,BO,1682230271
358,christchurch,-43.5333,172.6333,14.95,87,36,3.09,NZ,1682230196
359,kalmunai,7.4167,81.8167,30.07,71,98,1.83,LK,1682230453
360,manokwari,-0.8667,134.0833,27.81,77,92,1.69,ID,1682230453
361,essaouira,31.5125,-9.77,16.96,85,31,8.98,MA,1682230434
362,timmins,48.4669,-81.3331,-0.1,100,100,4.12,CA,1682230454
363,saint-philippe,-21.3585,55.7679,27.84,73,100,2.91,RE,1682230454
364,noosa heads,-26.3833,153.15,23.39,65,89,10.74,AU,1682230455
365,adis zemen,12.1167,37.7833,24.65,28,43,3.25,ET,1682230455
366,nong phai,15.9903,101.0618,39.97,26,1,4.29,TH,1682230410
367,sao jose da coroa grande,-8.8978,-35.1478,24.68,78,50,3.04,BR,1682230455
368,igarka,67.4667,86.5833,0.76,100,100,7.54,RU,1682230455
369,zonguldak,41.25,31.8333,6.47,66,100,0.86,TR,1682230456
370,mascouche,45.7496,-73.5996,13.97,77,54,1.54,CA,1682230456
371,udachny,66.4167,112.4,-1.77,78,100,3.13,RU,1682230457
372,mata-utu,-13.2816,-176.1745,28.08,76,13,4.46,WF,1682230363
373,amahai,-3.3333,128.9167,29.8,68,59,2.8,ID,1682230457
374,zarah sharan,33.1467,68.7917,16.41,14,0,1.63,AF,1682230457
375,kibungo,-2.1597,30.5427,18.51,94,100,0.63,RW,1682230457
376,faya-largeau,17.9257,19.1043,30.59,11,2,1.92,TD,1682230457
377,malango,-2.9627,119.9001,28.6,60,83,2.12,ID,1682230457
378,chegdomyn,51.1167,133.0167,6.06,52,100,2.64,RU,1682230458
379,aldinga beach,-35.2793,138.4604,26.89,53,0,2.46,AU,1682230179
380,al jahra',29.3375,47.6581,30.5,24,79,1.45,KW,1682230373
381,nacala,-14.5428,40.6728,26.41,76,77,3.46,MZ,1682230458
382,kogalym,62.2654,74.4791,2.26,96,100,3.11,RU,1682230306
383,qandala,11.472,49.8728,31.05,48,88,1.95,SO,1682230459
384,phatthalung,7.5,100.0833,33.17,54,88,4.49,TH,1682230395
385,al jabin,14.704,43.599,17.47,55,13,1.63,YE,1682230459
386,monguno,12.6786,13.6079,30.07,32,52,3.82,NG,1682230459
387,fort frances,48.5999,-93.4003,-6.88,73,0,0.0,CA,1682230460
388,lindsay,36.203,-119.0882,20.56,76,0,1.54,US,1682230460
389,bridgewater,44.3835,-64.5155,4.82,86,100,2.06,CA,1682230460
390,loango,-4.6719,11.8312,24.01,89,98,2.78,CG,1682230460
391,al wakrah,24.85,51.3333,31.19,20,91,0.89,QA,1682230284
392,laascaanood,8.4774,47.3597,26.53,59,98,2.69,SO,1682230460
393,metlili chaamba,32.2667,3.6333,17.52,42,0,2.57,DZ,1682230461
394,kismayo,-0.3582,42.5454,27.24,75,100,3.22,SO,1682230461
395,pong nam ron,12.9058,102.2623,35.86,41,55,3.15,TH,1682230379
396,halle neustadt,51.4792,11.9161,14.69,84,100,1.79,DE,1682230461
397,bahia de kino,28.8333,-111.9333,23.38,35,0,2.66,MX,1682230462
398,uvira,-3.4067,29.1458,23.35,89,100,1.79,CD,1682230462
399,pingliang,35.5392,106.6861,4.13,97,100,1.18,CN,1682230462
400,pierre,44.3683,-100.351,2.93,69,75,1.34,US,1682230462
401,levuka,50.1834,-105.4011,-4.16,94,15,2.37,CA,1682230462
402,cockburn town,21.4612,-71.1419,24.61,70,2,2.26,TC,1682230431
403,teluk nibung,3.001,99.8164,31.61,60,60,2.82,ID,1682230463
404,aguas formosas,-17.0822,-40.9358,19.43,98,83,1.75,BR,1682230463
405,bonthe,7.5264,-12.505,25.88,81,79,1.96,SL,1682230463
406,galveston,29.3669,-94.9669,21.11,73,0,4.12,US,1682230463
407,kendari,-3.945,122.4989,30.39,64,18,2.61,ID,1682230463
408,nadym,65.5333,72.5167,0.89,100,100,3.71,RU,1682230330
409,upington,-28.4478,21.2561,16.28,13,39,0.9,ZA,1682230206
410,cassilandia,-19.1133,-51.7342,19.46,97,32,1.54,BR,1682230464
411,bhandara,21.1667,79.65,35.85,20,47,1.8,IN,1682230464
412,mugia,43.1041,-9.2179,15.65,92,89,7.51,ES,1682230464
413,rio grande,-32.035,-52.0986,18.16,87,100,2.2,BR,1682230464
414,tofol,5.3248,163.0078,28.37,78,100,5.48,FM,1682230464
415,lorengau,-2.0226,147.2712,28.88,74,99,2.02,PG,1682230465
416,khovd,48.0056,91.6419,5.13,29,97,3.19,MN,1682230465
417,hotan,37.0997,79.9269,20.92,11,0,2.18,CN,1682230449
418,forchtenberg,49.2883,9.5628,13.34,78,100,3.05,DE,1682230465
419,itoman,26.1247,127.6694,25.01,61,20,7.72,JP,1682230437
420,namibe,-15.1961,12.1522,24.81,71,64,3.69,AO,1682230466
421,ujae,8.9322,165.7642,27.72,80,46,8.23,MH,1682230466
422,mao,39.8885,4.2658,14.31,100,40,2.06,ES,1682230273
423,creel,27.75,-107.6333,7.3,23,0,1.72,MX,1682230466
424,queenstown,-31.8976,26.8753,15.05,22,79,2.04,ZA,1682230466
425,ad dilam,23.9915,47.1627,27.57,36,67,2.37,SA,1682230329
426,coahuayana de hidalgo,18.7,-103.6583,24.07,83,98,0.42,MX,1682230466
427,longido,-2.7333,36.6833,20.2,72,100,1.65,TZ,1682230467
428,shalkar,47.8288,59.6258,18.92,35,1,7.71,KZ,1682230467
429,yuzhno-kurilsk,44.0306,145.8556,4.24,78,92,1.04,RU,1682230467
430,kristiansund,63.1115,7.732,4.03,64,100,9.77,NO,1682230467
431,kirillov,59.863,38.3813,10.05,67,48,0.9,RU,1682230467
432,murun-kuren,49.6342,100.1625,5.26,19,100,0.86,MN,1682230468
433,galesong,-5.3166,119.3661,33.01,70,95,1.53,ID,1682230468
434,ochobo,7.183,7.9769,25.32,89,97,2.65,NG,1682230468
435,nagato,34.3833,131.2,15.91,55,88,9.48,JP,1682230469
436,pauini,-7.7136,-66.9764,22.74,100,100,1.08,BR,1682230469
437,pangody,65.85,74.4859,0.88,100,100,2.58,RU,1682230469
438,bintulu,3.1667,113.0333,29.92,72,100,3.83,MY,1682230259
439,novouzensk,50.4592,48.1431,12.64,71,97,1.53,RU,1682230470
440,paradip garh,20.3167,86.6167,30.76,48,93,3.38,IN,1682230470
441,luderitz,-26.6481,15.1594,17.4,45,100,2.88,NA,1682230470
442,katabu,-4.9333,122.5167,32.13,51,17,2.35,ID,1682230470
443,champerico,14.3,-91.9167,28.16,71,9,4.2,GT,1682230470
444,dieppe,49.75,1.1667,10.18,89,72,0.89,FR,1682230471
445,ratnagiri,16.9833,73.3,30.24,51,2,5.29,IN,1682230200
446,kardla,58.9978,22.7492,9.58,56,11,4.0,EE,1682230471
447,holualoa,19.6228,-155.9522,23.91,92,100,4.63,US,1682230471
448,banjarmasin,-3.3244,114.591,34.08,50,38,0.55,ID,1682230471
449,sinabang,2.4803,96.3801,30.54,64,92,1.3,ID,1682230471
450,nyagan,62.1406,65.3936,1.3,100,100,3.46,RU,1682230471
451,enzan,35.7,138.7333,19.39,43,73,2.21,JP,1682230472
452,brokopondo,4.75,-55.1667,23.46,96,100,1.62,SR,1682230472
453,phan rang-thap cham,11.5667,108.9833,33.96,47,7,5.01,VN,1682230309
454,dhrangadhra,22.9833,71.4667,34.61,23,1,5.35,IN,1682230472
455,progreso,21.2833,-89.6667,27.06,81,54,5.56,MX,1682230320
456,tazacorte,28.629,-17.9293,18.54,83,75,2.68,ES,1682230473
457,el burgo de osma,41.5862,-3.0652,6.48,78,54,1.63,ES,1682230473
458,chibougamau,49.9168,-74.3659,6.79,65,100,7.2,CA,1682230473
459,humberto de campos,-2.5983,-43.4611,23.76,94,81,1.64,BR,1682230474
460,port moresby,-9.4431,147.1797,28.49,74,100,3.08,PG,1682230474
461,nantucket,41.2835,-70.0995,9.06,84,100,9.26,US,1682230474
462,touros,-5.1989,-35.4608,24.38,86,44,5.03,BR,1682230474
463,murray bridge,-35.1167,139.2667,26.85,38,0,2.15,AU,1682230279
464,conduaga,8.862,117.4893,30.76,65,37,2.4,PH,1682230475
465,praia da vitoria,38.7333,-27.0667,18.14,94,75,8.43,PT,1682230475
466,mbandaka,0.0487,18.2603,22.24,94,100,0.29,CD,1682230475
467,kuala tungkal,-0.8167,103.4667,30.46,66,100,2.17,ID,1682230475
468,ulladulla,-35.35,150.4667,19.87,74,99,4.17,AU,1682230475
469,northam,51.0333,-4.2167,6.88,96,69,1.73,GB,1682230475
470,berezovo,63.9381,65.0419,1.63,95,100,6.34,RU,1682230476
471,taltal,-25.4,-70.4833,17.11,84,7,1.09,CL,1682230476
472,pingzhuang,42.0372,119.2889,11.94,10,100,2.47,CN,1682230476
473,mazagao,-0.115,-51.2894,26.03,95,100,1.14,BR,1682230476
474,san antonio de pale,-1.4014,5.6325,27.37,79,67,4.86,GQ,1682230476
475,bandiagara,14.3501,-3.6104,26.64,7,87,4.61,ML,1682230476
476,ciudad melchor muzquiz,27.8833,-101.5167,22.44,81,5,5.04,MX,1682230477
477,bozoum,6.3193,16.3799,22.19,88,94,2.98,CF,1682230477
478,jianguang,28.1938,115.7836,14.16,89,100,3.42,CN,1682230477
479,downham market,52.6029,0.379,10.44,76,99,5.18,GB,1682230477
480,inarajan village,13.2736,144.7484,28.08,92,100,7.16,GU,1682230478
481,boditi,6.9667,37.8667,18.83,72,100,1.68,ET,1682230478
482,calama,-22.4667,-68.9333,5.27,70,0,5.66,CL,1682230411
483,boa vista,2.8197,-60.6733,24.99,88,75,1.03,BR,1682230478
484,barcelos,41.5388,-8.6151,15.47,96,91,3.14,PT,1682230478
485,tambopata,-12.7333,-69.1833,22.55,86,82,1.21,PE,1682230479
486,konosha,60.9736,40.257,5.18,80,93,2.03,RU,1682230479
487,mossel bay,-34.1831,22.146,20.96,62,70,2.21,ZA,1682230479
488,armacao de buzios,-22.7469,-41.8817,21.8,77,10,0.89,BR,1682230460
489,la paz,-16.5,-68.15,7.54,84,40,4.12,BO,1682230479
490,nova vicosa,-17.8919,-39.3719,24.05,85,62,6.85,BR,1682230480
491,rio gallegos,-51.6226,-69.2181,9.03,71,40,5.66,AR,1682230392
492,rakops,-21.0167,24.3333,22.84,37,92,3.22,BW,1682230480
493,taco pozo,-25.6167,-63.2833,17.85,78,100,1.98,AR,1682230480
494,usinsk,65.9939,57.5281,-3.08,85,100,10.85,RU,1682230481
495,khawr fakkan,25.3313,56.342,28.03,29,56,0.91,AE,1682230481
496,carutapera,-1.195,-46.02,24.39,93,98,1.97,BR,1682230481
497,sevastopol,44.6,33.5333,14.44,50,16,1.64,UA,1682230270
498,bardai,11.65,7.2333,25.16,57,3,6.09,NG,1682230481
499,callao,-12.0667,-77.15,26.51,69,75,4.63,PE,1682230394
500,qusmuryn,52.4503,64.6311,15.98,52,98,7.01,KZ,1682230482
501,ceeldheer,3.8488,47.1806,30.04,66,100,4.23,SO,1682230482
502,dunedin,-45.8742,170.5036,11.56,10,100,8.49,NZ,1682230292
503,el granada,37.5027,-122.4694,15.02,80,0,10.29,US,1682230482
504,atar,20.5169,-13.0499,23.49,23,0,3.83,MR,1682230483
505,ponta delgada,37.7333,-25.6667,17.4,100,75,5.66,PT,1682230238
506,taguatinga,-12.3857,-46.5711,22.23,71,23,2.75,BR,1682230483
507,pont rouge,48.8833,-72.0825,6.16,78,100,6.75,CA,1682230484
508,hobyo,5.3505,48.5268,29.76,70,99,4.97,SO,1682230306
509,valparaiso,-33.0393,-71.6273,16.67,63,100,1.54,CL,1682230484
510,namdrik,5.5994,168.1028,28.33,79,54,7.44,MH,1682230484
511,timimoun,29.2639,0.231,22.01,34,86,4.04,DZ,1682230484
512,macusani,-14.0833,-70.4333,1.3,85,60,1.6,PE,1682230484
513,jumla,29.2747,82.1838,17.07,24,19,2.65,NP,1682230484
514,hami,42.8,93.45,16.96,24,100,3.53,CN,1682230485
515,tura,25.5198,90.2201,20.36,88,100,2.61,IN,1682230485
516,nahiyat saddat al hindiyah,32.7147,44.2803,28.74,24,95,2.35,IQ,1682230485
517,pocone,-16.2567,-56.6228,21.17,87,3,0.77,BR,1682230485
518,minas de marcona,-15.2119,-75.1103,17.14,81,9,3.56,PE,1682230485
519,puerto san jose,13.9256,-90.8244,27.75,77,23,3.86,GT,1682230486
520,suntar,62.1444,117.6319,1.89,69,17,1.42,RU,1682230486
521,ati,13.2154,18.3353,31.87,18,24,3.49,TD,1682230486
522,kampene,-3.6,26.6667,21.01,99,100,0.61,CD,1682230486
523,korsakov,46.6328,142.7813,6.91,53,95,8.04,RU,1682230487
524,fale old settlement,-9.3852,-171.2468,28.89,75,100,4.17,TK,1682230487
525,yuanping,38.7153,112.7575,9.76,57,100,5.89,CN,1682230487
526,jabat,7.75,168.9751,27.83,81,24,8.06,MH,1682230488
527,kharan,28.5833,65.4167,31.55,4,3,1.46,PK,1682230488
528,shahdol,23.2833,81.35,35.48,14,47,3.88,IN,1682230488
529,portland,45.5234,-122.6762,15.02,91,100,3.6,US,1682230488
530,ugoofaaru,5.6667,73.0,29.29,75,85,3.91,MV,1682230488
531,oranjemund,-28.55,16.4333,15.04,38,58,1.89,NA,1682230488
532,ahtari,62.554,24.0619,0.31,94,100,2.97,FI,1682230489
533,zaragoza,41.6561,-0.8773,11.92,64,20,1.54,ES,1682230232
534,altai,46.3722,96.2583,2.15,67,100,4.05,MN,1682230489
535,harrismith,-28.2728,29.1295,12.92,25,2,2.39,ZA,1682230489
536,oshawa,43.9001,-78.8496,7.73,93,100,1.54,CA,1682230489
537,qianzhou,28.3167,109.7167,7.89,93,100,2.79,CN,1682230489
538,hengchun,22.0042,120.7439,25.2,77,98,3.52,TW,1682230380
539,sao joao da barra,-21.6403,-41.0511,20.74,83,23,2.7,BR,1682230490
540,arauca,7.0847,-70.7591,23.4,97,100,0.82,CO,1682230412
541,mejit,10.2753,170.8646,27.46,80,78,8.39,MH,1682230490
542,letterkenny,54.95,-7.7333,4.55,90,68,0.39,IE,1682230490
543,coquimbo,-29.9533,-71.3436,15.85,82,100,0.51,CL,1682230490
544,filadelfia,39.9523,-75.1638,15.14,96,100,3.6,US,1682230491
545,dimako,4.3833,13.5667,20.93,93,100,1.1,CM,1682230491
546,kembe,4.6228,21.8865,22.84,81,98,1.68,CF,1682230491
547,bliss corner,41.6118,-70.9384,11.21,81,100,10.73,US,1682230491
548,noshiro,40.2039,140.0242,9.11,39,4,9.29,JP,1682230385
549,suva,-18.1416,178.4415,23.71,94,75,0.0,FJ,1682230491
550,vanimo,-2.6741,141.3028,28.99,72,74,2.29,PG,1682230492
551,kuching,1.55,110.3333,32.9,70,20,1.54,MY,1682230492
552,hasaki,35.7333,140.8333,17.34,41,100,2.62,JP,1682230492
553,kisangani,0.5167,25.2,20.41,100,100,0.42,CD,1682230492
554,hexham,54.9699,-2.104,6.78,95,97,0.26,GB,1682230492
555,shakiso,5.75,38.9167,17.94,85,100,1.65,ET,1682230493
556,la passe,45.5549,-0.8967,13.32,88,100,7.09,FR,1682230493
557,paphos,34.7667,32.4167,20.13,63,20,1.03,CY,1682230276
558,puerto cabezas,14.0351,-83.3888,24.12,85,23,1.94,NI,1682230493
559,mirny,62.5353,113.9611,0.69,29,8,1.79,RU,1682230333
560,tchintabaraden,15.8969,5.7985,25.58,6,29,2.16,NE,1682230494
561,maues,-3.3836,-57.7186,22.21,99,100,1.1,BR,1682230494
562,amga,60.8953,131.9608,0.35,82,99,4.61,RU,1682230494
563,murud,18.3258,72.965,31.16,47,25,4.7,IN,1682230495
564,guerrero negro,27.9769,-114.0611,15.28,82,0,4.45,MX,1682230495
565,bikenibeu village,1.3673,173.1241,28.98,79,40,3.09,KI,1682230495
566,colby,39.3958,-101.0524,1.69,50,0,2.06,US,1682230496
567,san felipe,10.3399,-68.7425,22.71,97,99,0.48,VE,1682230496
568,eirunepe,-6.6603,-69.8736,22.29,99,100,0.64,BR,1682230496
569,colico piano,46.1324,9.3698,15.88,80,99,0.61,IT,1682230426
570,grand falls-windsor,48.9332,-55.6649,0.84,94,100,3.58,CA,1682230496
571,meulaboh,4.1363,96.1285,30.11,67,63,2.63,ID,1682230497
572,vahdat,38.5563,69.0135,24.41,22,47,2.0,TJ,1682230497
573,griffith,41.5284,-87.4237,4.38,74,100,5.66,US,1682230497
574,bahir dar,11.5936,37.3908,25.92,21,34,1.65,ET,1682230497
575,vernal,40.4555,-109.5287,4.84,52,100,3.09,US,1682230498
576,saguenay,48.4168,-71.0657,10.05,62,75,8.75,CA,1682230498
577,al jawf,29.5,38.75,24.2,29,73,2.19,SA,1682230498
578,banda aceh,5.5577,95.3222,30.06,69,34,1.96,ID,1682230498
579,qarshi,38.8667,65.8,28.9,17,0,1.03,UZ,1682230378
580,shalqar,47.8333,59.6,18.91,35,1,7.7,KZ,1682230499
581,cambria,35.5641,-121.0808,17.91,73,73,3.34,US,1682230499
582,mawu,29.5923,107.3139,13.56,92,100,0.71,CN,1682230499
583,kodinsk,58.6881,99.1844,3.37,50,12,1.57,RU,1682230499
584,nuku'alofa,-21.1333,-175.2,25.56,72,5,9.11,TO,1682230421
585,ventura,34.4667,-119.0176,13.2,79,22,3.24,US,1682230499
586,khandyga,62.6667,135.6,0.6,77,100,1.89,RU,1682230499
587,moriki,12.8741,6.4875,28.35,43,1,4.52,NG,1682230500
588,aguas vermelhas,-15.7472,-41.46,18.15,96,84,2.43,BR,1682230500
589,bloemhof,-27.6469,25.607,15.76,17,7,1.31,ZA,1682230500
590,tobruk,32.0836,23.9764,18.7,61,8,6.18,LY,1682230500
